[
  {"model": "gps.zonatrafico", "pk": 1,  "fields": {"nombre": "Periférico Sur hora pico AM",    "latitud_centro": 19.3241, "longitud_centro": -99.1892, "radio_km": 1.5, "nivel_trafico": "alto",   "hora_inicio": "07:00:00", "hora_fin": "09:30:00", "activa": true}},
  {"model": "gps.zonatrafico", "pk": 2,  "fields": {"nombre": "Periférico Sur hora pico PM",    "latitud_centro": 19.3241, "longitud_centro": -99.1892, "radio_km": 1.5, "nivel_trafico": "critico","hora_inicio": "17:00:00", "hora_fin": "20:00:00", "activa": true}},
  {"model": "gps.zonatrafico", "pk": 3,  "fields": {"nombre": "Insurgentes Centro",             "latitud_centro": 19.4198, "longitud_centro": -99.1476, "radio_km": 1.0, "nivel_trafico": "alto",   "hora_inicio": "07:30:00", "hora_fin": "09:30:00", "activa": true}},
  {"model": "gps.zonatrafico", "pk": 4,  "fields": {"nombre": "Insurgentes Centro PM",          "latitud_centro": 19.4198, "longitud_centro": -99.1476, "radio_km": 1.0, "nivel_trafico": "alto",   "hora_inicio": "17:00:00", "hora_fin": "19:30:00", "activa": true}},
  {"model": "gps.zonatrafico", "pk": 5,  "fields": {"nombre": "Viaducto Miguel Alemán",         "latitud_centro": 19.4012, "longitud_centro": -99.1234, "radio_km": 1.2, "nivel_trafico": "medio",  "hora_inicio": "08:00:00", "hora_fin": "10:00:00", "activa": true}},
  {"model": "gps.zonatrafico", "pk": 6,  "fields": {"nombre": "Eje 8 Sur / Ermita",             "latitud_centro": 19.3654, "longitud_centro": -99.1543, "radio_km": 0.8, "nivel_trafico": "medio",  "hora_inicio": "07:00:00", "hora_fin": "09:00:00", "activa": true}},
  {"model": "gps.zonatrafico", "pk": 7,  "fields": {"nombre": "Autopista MEX-85 Ecatepec",      "latitud_centro": 19.6012, "longitud_centro": -99.0543, "radio_km": 2.0, "nivel_trafico": "alto",   "hora_inicio": "06:30:00", "hora_fin": "09:00:00", "activa": true}},
  {"model": "gps.zonatrafico", "pk": 8,  "fields": {"nombre": "Autopista MEX-85 Ecatepec PM",   "latitud_centro": 19.6012, "longitud_centro": -99.0543, "radio_km": 2.0, "nivel_trafico": "critico","hora_inicio": "17:30:00", "hora_fin": "20:30:00", "activa": true}},
  {"model": "gps.zonatrafico", "pk": 9,  "fields": {"nombre": "Tlalnepantla centro",            "latitud_centro": 19.5423, "longitud_centro": -99.1956, "radio_km": 1.0, "nivel_trafico": "medio",  "hora_inicio": "08:00:00", "hora_fin": "10:00:00", "activa": true}},
  {"model": "gps.zonatrafico", "pk": 10, "fields": {"nombre": "Naucalpan / Periférico Norte",   "latitud_centro": 19.4723, "longitud_centro": -99.2341, "radio_km": 1.5, "nivel_trafico": "alto",   "hora_inicio": "07:00:00", "hora_fin": "09:30:00", "activa": true}},
  {"model": "gps.zonatrafico", "pk": 11, "fields": {"nombre": "Centro Histórico CDMX",          "latitud_centro": 19.4326, "longitud_centro": -99.1332, "radio_km": 1.0, "nivel_trafico": "medio",  "hora_inicio": "09:00:00", "hora_fin": "21:00:00", "activa": true}},
  {"model": "gps.zonatrafico", "pk": 12, "fields": {"nombre": "Santa Fe acceso",                "latitud_centro": 19.3612, "longitud_centro": -99.2612, "radio_km": 1.2, "nivel_trafico": "critico","hora_inicio": "07:30:00", "hora_fin": "10:00:00", "activa": true}},
  {"model": "gps.zonatrafico", "pk": 13, "fields": {"nombre": "Autopista Puebla km 30",         "latitud_centro": 19.3012, "longitud_centro": -98.8234, "radio_km": 1.0, "nivel_trafico": "medio",  "hora_inicio": "07:00:00", "hora_fin": "09:00:00", "activa": true}},
  {"model": "gps.zonatrafico", "pk": 14, "fields": {"nombre": "Paseo de la Reforma",            "latitud_centro": 19.4278, "longitud_centro": -99.1678, "radio_km": 0.8, "nivel_trafico": "medio",  "hora_inicio": "08:00:00", "hora_fin": "10:00:00", "activa": true}},
  {"model": "gps.zonatrafico", "pk": 15, "fields": {"nombre": "Zona Industrial Vallejo",        "latitud_centro": 19.4823, "longitud_centro": -99.1423, "radio_km": 0.8, "nivel_trafico": "bajo",   "hora_inicio": "06:00:00", "hora_fin": "08:30:00", "activa": true}}
]
